{"class":"VERSION","release":"3.17","rev":"3.17","proto_major":3,"proto_minor":12}
{"class":"DEVICES","devices":[{"class":"DEVICE","path":"/dev/ttyUSB0","activated":"2020-10-26T13:25:23.013Z","native":0,"bps":9600,"parity":"N","stopbits":1,"cycle":1.00},{"class":"DEVICE","path":"/dev/ttyUSB3","driver":"u-blox","subtype":"SW 1.00 (59842),HW 00070000,PROTVER 14.00,GPS;SBAS;GLO;QZSS","activated":"2020-10-26T19:47:55.009Z","flags":1,"native":1,"bps":9600,"parity":"N","stopbits":1,"cycle":1.00,"mincycle":0.25}]}
{"class":"WATCH","enable":true,"json":true,"nmea":false,"raw":0,"scaled":false,"timing":false,"split24":false,"pps":false}
{"class":"TPV","device":"/dev/ttyUSB3","status":2,"mode":3,"time":"2020-10-26T19:47:55.000Z","ept":0.005,"lat":41.580621253,"lon":-84.890565581,"alt":308.390,"epx":1.918,"epy":2.494,"epv":7.245,"track":359.9909,"speed":2.200,"climb":0.006,"eps":0.11,"epc":14.49}
{"class":"PPS","device":"/dev/ttyUSB3","real_sec":1603741676, "real_nsec":0,"clock_sec":1603741676,"clock_nsec":9158508,"precision":-10}
{"class":"TPV","device":"/dev/ttyUSB3","status":2,"mode":3,"time":"2020-10-26T19:47:56.000Z","ept":0.005,"lat":41.580641120,"lon":-84.890565010,"alt":308.434,"epx":1.918,"epy":2.494,"epv":7.245,"track":1.5411,"speed":2.176,"climb":0.004,"eps":0.11,"epc":14.49}
{"class":"PPS","device":"/dev/ttyUSB3","real_sec":1603741677, "real_nsec":0,"clock_sec":1603741677,"clock_nsec":9042317,"precision":-10}
{"class":"TPV","device":"/dev/ttyUSB3","status":2,"mode":3,"time":"2020-10-26T19:47:57.000Z","ept":0.005,"lat":41.580660405,"lon":-84.890564470,"alt":308.461,"epx":1.918,"epy":2.494,"epv":7.245,"track":0.6555,"speed":2.114,"climb":0.013,"eps":0.11,"epc":14.49}
{"class":"PPS","device":"/dev/ttyUSB3","real_sec":1603741678, "real_nsec":0,"clock_sec":1603741678,"clock_nsec":8941125,"precision":-10}
{"class":"TPV","device":"/dev/ttyUSB3","status":2,"mode":3,"time":"2020-10-26T19:47:58.000Z","ept":0.005,"lat":41.580679430,"lon":-84.890564483,"alt":308.550,"epx":1.918,"epy":2.494,"epv":7.245,"track":0.1156,"speed":2.115,"climb":0.012,"eps":0.11,"epc":14.49}
{"class":"PPS","device":"/dev/ttyUSB3","real_sec":1603741679, "real_nsec":0,"clock_sec":1603741679,"clock_nsec":8846932,"precision":-10}
{"class":"TPV","device":"/dev/ttyUSB3","status":2,"mode":3,"time":"2020-10-26T19:47:59.000Z","ept":0.005,"lat":41.580698311,"lon":-84.890564485,"alt":308.612,"epx":1.918,"epy":2.494,"epv":7.245,"track":359.8951,"speed":2.137,"climb":0.003,"eps":0.11,"epc":14.49}
{"class":"PPS","device":"/dev/ttyUSB3","real_sec":1603741680, "real_nsec":0,"clock_sec":1603741680,"clock_nsec":8763405,"precision":-10}
{"class":"TPV","device":"/dev/ttyUSB3","status":2,"mode":3,"time":"2020-10-26T19:48:00.000Z","ept":0.005,"lat":41.580717783,"lon":-84.890564261,"alt":308.601,"epx":1.918,"epy":2.494,"epv":7.245,"track":0.0143,"speed":2.177,"climb":-0.028,"eps":0.11,"epc":14.49}
{"class":"PPS","device":"/dev/ttyUSB3","real_sec":1603741681, "real_nsec":0,"clock_sec":1603741681,"clock_nsec":9797105,"precision":-10}
{"class":"TPV","device":"/dev/ttyUSB3","status":2,"mode":3,"time":"2020-10-26T19:48:01.000Z","ept":0.005,"lat":41.580737441,"lon":-84.890563679,"alt":308.611,"epx":1.918,"epy":2.494,"epv":7.245,"track":0.5841,"speed":2.182,"climb":-0.048,"eps":0.11,"epc":14.49}
{"class":"PPS","device":"/dev/ttyUSB3","real_sec":1603741682, "real_nsec":0,"clock_sec":1603741682,"clock_nsec":9614254,"precision":-10}
{"class":"TPV","device":"/dev/ttyUSB3","status":2,"mode":3,"time":"2020-10-26T19:48:02.000Z","ept":0.005,"lat":41.580757282,"lon":-84.890562979,"alt":308.493,"epx":1.918,"epy":2.494,"epv":7.245,"track":359.8947,"speed":2.217,"climb":-0.073,"eps":0.11,"epc":14.49}
{"class":"PPS","device":"/dev/ttyUSB3","real_sec":1603741683, "real_nsec":0,"clock_sec":1603741683,"clock_nsec":9499063,"precision":-10}
{"class":"TPV","device":"/dev/ttyUSB3","status":2,"mode":3,"time":"2020-10-26T19:48:03.000Z","ept":0.005,"lat":41.580777250,"lon":-84.890562606,"alt":308.343,"epx":1.918,"epy":2.494,"epv":7.245,"track":359.7318,"speed":2.237,"climb":-0.110,"eps":0.11,"epc":14.49}
{"class":"PPS","device":"/dev/ttyUSB3","real_sec":1603741684, "real_nsec":0,"clock_sec":1603741684,"clock_nsec":9424535,"precision":-10}
{"class":"TPV","device":"/dev/ttyUSB3","status":2,"mode":3,"time":"2020-10-26T19:48:04.000Z","ept":0.005,"lat":41.580797624,"lon":-84.890561919,"alt":308.143,"epx":1.918,"epy":2.494,"epv":7.245,"track":1.1372,"speed":2.296,"climb":-0.146,"eps":0.11,"epc":14.49}
{"class":"SKY","device":"/dev/ttyUSB3","xdop":0.51,"ydop":0.67,"vdop":1.26,"tdop":0.70,"hdop":0.68,"gdop":1.60,"pdop":1.44,"satellites":[{"PRN":1,"el":11,"az":325,"ss":41,"used":true},{"PRN":10,"el":76,"az":111,"ss":48,"used":true},{"PRN":11,"el":16,"az":298,"ss":41,"used":true},{"PRN":12,"el":21,"az":87,"ss":44,"used":true},{"PRN":20,"el":39,"az":133,"ss":45,"used":true},{"PRN":21,"el":34,"az":294,"ss":47,"used":true},{"PRN":23,"el":43,"az":125,"ss":46,"used":true},{"PRN":24,"el":21,"az":47,"ss":43,"used":true},{"PRN":25,"el":19,"az":126,"ss":41,"used":true},{"PRN":31,"el":25,"az":205,"ss":36,"used":true},{"PRN":32,"el":65,"az":297,"ss":47,"used":true},{"PRN":131,"el":32,"az":223,"ss":39,"used":true},{"PRN":133,"el":25,"az":236,"ss":42,"used":true},{"PRN":138,"el":37,"az":212,"ss":44,"used":true}]}
{"class":"PPS","device":"/dev/ttyUSB3","real_sec":1603741685, "real_nsec":0,"clock_sec":1603741685,"clock_nsec":9330009,"precision":-10}
{"class":"TPV","device":"/dev/ttyUSB3","status":2,"mode":3,"time":"2020-10-26T19:48:05.000Z","ept":0.005,"lat":41.580817944,"lon":-84.890561362,"alt":307.950,"epx":1.918,"epy":2.494,"epv":7.245,"track":0.7913,"speed":2.255,"climb":-0.116,"eps":0.11,"epc":14.49}
{"class":"PPS","device":"/dev/ttyUSB3","real_sec":1603741686, "real_nsec":0,"clock_sec":1603741686,"clock_nsec":9231151,"precision":-10}
{"class":"TPV","device":"/dev/ttyUSB3","status":2,"mode":3,"time":"2020-10-26T19:48:06.000Z","ept":0.005,"lat":41.580837689,"lon":-84.890560847,"alt":307.754,"epx":1.918,"epy":2.494,"epv":7.245,"track":1.0423,"speed":2.211,"climb":-0.141,"eps":0.11,"epc":14.49}
{"class":"PPS","device":"/dev/ttyUSB3","real_sec":1603741687, "real_nsec":0,"clock_sec":1603741687,"clock_nsec":9082630,"precision":-10}
{"class":"TPV","device":"/dev/ttyUSB3","status":2,"mode":3,"time":"2020-10-26T19:48:07.000Z","ept":0.005,"lat":41.580857056,"lon":-84.890560593,"alt":307.544,"epx":1.918,"epy":2.494,"epv":7.245,"track":359.6509,"speed":2.157,"climb":-0.141,"eps":0.11,"epc":14.49}
{"class":"PPS","device":"/dev/ttyUSB3","real_sec":1603741688, "real_nsec":0,"clock_sec":1603741688,"clock_nsec":8991770,"precision":-10}
{"class":"TPV","device":"/dev/ttyUSB3","status":2,"mode":3,"time":"2020-10-26T19:48:08.000Z","ept":0.005,"lat":41.580875738,"lon":-84.890560751,"alt":307.330,"epx":1.918,"epy":2.494,"epv":7.245,"track":359.4703,"speed":2.096,"climb":-0.102,"eps":0.11,"epc":14.49}
{"class":"PPS","device":"/dev/ttyUSB3","real_sec":1603741689, "real_nsec":0,"clock_sec":1603741689,"clock_nsec":8890245,"precision":-10}
{"class":"TPV","device":"/dev/ttyUSB3","status":2,"mode":3,"time":"2020-10-26T19:48:09.000Z","ept":0.005,"lat":41.580894157,"lon":-84.890560245,"alt":307.164,"epx":1.918,"epy":2.494,"epv":7.245,"track":1.0322,"speed":2.044,"climb":-0.088,"eps":0.11,"epc":14.49}
{"class":"PPS","device":"/dev/ttyUSB3","real_sec":1603741690, "real_nsec":0,"clock_sec":1603741690,"clock_nsec":8812384,"precision":-10}
{"class":"TPV","device":"/dev/ttyUSB3","status":2,"mode":3,"time":"2020-10-26T19:48:10.000Z","ept":0.005,"lat":41.580912395,"lon":-84.890559543,"alt":307.035,"epx":1.918,"epy":2.494,"epv":7.245,"track":1.5515,"speed":2.030,"climb":-0.072,"eps":0.11,"epc":14.49}
{"class":"PPS","device":"/dev/ttyUSB3","real_sec":1603741691, "real_nsec":0,"clock_sec":1603741691,"clock_nsec":8728190,"precision":-10}
{"class":"TPV","device":"/dev/ttyUSB3","status":2,"mode":3,"time":"2020-10-26T19:48:11.000Z","ept":0.005,"lat":41.580930792,"lon":-84.890559211,"alt":306.932,"epx":1.918,"epy":2.494,"epv":7.245,"track":0.0959,"speed":2.019,"climb":-0.061,"eps":0.11,"epc":14.49}
{"class":"PPS","device":"/dev/ttyUSB3","real_sec":1603741692, "real_nsec":0,"clock_sec":1603741692,"clock_nsec":9593906,"precision":-10}
{"class":"TPV","device":"/dev/ttyUSB3","status":2,"mode":3,"time":"2020-10-26T19:48:12.000Z","ept":0.005,"lat":41.580949435,"lon":-84.890559183,"alt":306.783,"epx":1.918,"epy":2.494,"epv":7.245,"track":359.6379,"speed":2.054,"climb":-0.085,"eps":0.11,"epc":14.49}
{"class":"PPS","device":"/dev/ttyUSB3","real_sec":1603741693, "real_nsec":0,"clock_sec":1603741693,"clock_nsec":9424054,"precision":-10}
{"class":"TPV","device":"/dev/ttyUSB3","status":2,"mode":3,"time":"2020-10-26T19:48:13.000Z","ept":0.005,"lat":41.580968116,"lon":-84.890558667,"alt":306.629,"epx":1.918,"epy":2.494,"epv":7.245,"track":1.3529,"speed":2.057,"climb":-0.103,"eps":0.11,"epc":14.49}
{"class":"PPS","device":"/dev/ttyUSB3","real_sec":1603741694, "real_nsec":0,"clock_sec":1603741694,"clock_nsec":9530509,"precision":-10}
{"class":"TPV","device":"/dev/ttyUSB3","status":2,"mode":3,"time":"2020-10-26T19:48:14.000Z","ept":0.005,"lat":41.580986400,"lon":-84.890558161,"alt":306.450,"epx":1.918,"epy":2.494,"epv":7.245,"track":0.6220,"speed":1.982,"climb":-0.064,"eps":0.11,"epc":14.49}
{"class":"SKY","device":"/dev/ttyUSB3","xdop":0.51,"ydop":0.67,"vdop":1.26,"tdop":0.70,"hdop":0.68,"gdop":1.60,"pdop":1.44,"satellites":[{"PRN":1,"el":11,"az":324,"ss":38,"used":true},{"PRN":10,"el":76,"az":111,"ss":48,"used":true},{"PRN":11,"el":16,"az":298,"ss":43,"used":true},{"PRN":12,"el":21,"az":87,"ss":45,"used":true},{"PRN":20,"el":39,"az":133,"ss":44,"used":true},{"PRN":21,"el":34,"az":294,"ss":48,"used":true},{"PRN":23,"el":43,"az":125,"ss":47,"used":true},{"PRN":24,"el":21,"az":47,"ss":41,"used":true},{"PRN":25,"el":19,"az":126,"ss":43,"used":true},{"PRN":31,"el":25,"az":205,"ss":35,"used":true},{"PRN":32,"el":65,"az":297,"ss":47,"used":true},{"PRN":131,"el":32,"az":223,"ss":40,"used":true},{"PRN":133,"el":25,"az":236,"ss":43,"used":true},{"PRN":138,"el":37,"az":212,"ss":45,"used":true}]}
{"class":"PPS","device":"/dev/ttyUSB3","real_sec":1603741695, "real_nsec":0,"clock_sec":1603741695,"clock_nsec":9441649,"precision":-10}
{"class":"TPV","device":"/dev/ttyUSB3","status":2,"mode":3,"time":"2020-10-26T19:48:15.000Z","ept":0.005,"lat":41.581003961,"lon":-84.890558219,"alt":306.301,"epx":1.915,"epy":2.501,"epv":7.245,"track":359.2891,"speed":1.908,"climb":-0.055,"eps":0.11,"epc":14.49}
{"class":"PPS","device":"/dev/ttyUSB3","real_sec":1603741696, "real_nsec":0,"clock_sec":1603741696,"clock_nsec":9257131,"precision":-10}
{"class":"TPV","device":"/dev/ttyUSB3","status":2,"mode":3,"time":"2020-10-26T19:48:16.000Z","ept":0.005,"lat":41.581021324,"lon":-84.890558059,"alt":306.161,"epx":1.915,"epy":2.501,"epv":7.303,"track":0.4394,"speed":1.877,"climb":-0.051,"eps":0.11,"epc":14.55}
{"class":"PPS","device":"/dev/ttyUSB3","real_sec":1603741697, "real_nsec":0,"clock_sec":1603741697,"clock_nsec":9176937,"precision":-10}
{"class":"TPV","device":"/dev/ttyUSB3","status":2,"mode":3,"time":"2020-10-26T19:48:17.000Z","ept":0.005,"lat":41.581039392,"lon":-84.890558073,"alt":306.009,"epx":1.915,"epy":2.501,"epv":7.303,"track":359.6046,"speed":2.010,"climb":-0.111,"eps":0.11,"epc":14.61}
{"class":"PPS","device":"/dev/ttyUSB3","real_sec":1603741698, "real_nsec":0,"clock_sec":1603741698,"clock_nsec":9025083,"precision":-10}
{"class":"TPV","device":"/dev/ttyUSB3","status":2,"mode":3,"time":"2020-10-26T19:48:18.000Z","ept":0.005,"lat":41.581057178,"lon":-84.890557826,"alt":305.952,"epx":1.915,"epy":2.501,"epv":7.303,"track":0.5260,"speed":1.956,"climb":-0.034,"eps":0.11,"epc":14.61}
{"class":"PPS","device":"/dev/ttyUSB3","real_sec":1603741699, "real_nsec":0,"clock_sec":1603741699,"clock_nsec":8951222,"precision":-10}
{"class":"TPV","device":"/dev/ttyUSB3","status":2,"mode":3,"time":"2020-10-26T19:48:19.000Z","ept":0.005,"lat":41.581074227,"lon":-84.890558554,"alt":305.988,"epx":1.915,"epy":2.501,"epv":7.303,"track":358.2292,"speed":1.877,"climb":-0.020,"eps":0.11,"epc":14.61}
{"class":"PPS","device":"/dev/ttyUSB3","real_sec":1603741700, "real_nsec":0,"clock_sec":1603741700,"clock_nsec":8859363,"precision":-10}
{"class":"TPV","device":"/dev/ttyUSB3","status":2,"mode":3,"time":"2020-10-26T19:48:20.000Z","ept":0.005,"lat":41.581091730,"lon":-84.890557502,"alt":305.951,"epx":1.915,"epy":2.501,"epv":7.303,"track":4.0968,"speed":1.987,"climb":-0.064,"eps":0.11,"epc":14.61}
{"class":"PPS","device":"/dev/ttyUSB3","real_sec":1603741701, "real_nsec":0,"clock_sec":1603741701,"clock_nsec":8756504,"precision":-10}
{"class":"TPV","device":"/dev/ttyUSB3","status":2,"mode":3,"time":"2020-10-26T19:48:21.000Z","ept":0.005,"lat":41.581108958,"lon":-84.890552599,"alt":305.738,"epx":1.915,"epy":2.501,"epv":7.303,"track":16.1673,"speed":1.950,"climb":-0.152,"eps":0.14,"epc":14.61}
{"class":"PPS","device":"/dev/ttyUSB3","real_sec":1603741702, "real_nsec":0,"clock_sec":1603741702,"clock_nsec":8665311,"precision":-10}
{"class":"TPV","device":"/dev/ttyUSB3","status":2,"mode":3,"time":"2020-10-26T19:48:22.000Z","ept":0.005,"lat":41.581123778,"lon":-84.890541385,"alt":305.525,"epx":1.915,"epy":2.501,"epv":7.303,"track":36.8142,"speed":1.906,"climb":-0.107,"eps":0.13,"epc":14.61}
{"class":"PPS","device":"/dev/ttyUSB3","real_sec":1603741703, "real_nsec":0,"clock_sec":1603741703,"clock_nsec":9608353,"precision":-10}
{"class":"TPV","device":"/dev/ttyUSB3","status":2,"mode":3,"time":"2020-10-26T19:48:23.000Z","ept":0.005,"lat":41.581134406,"lon":-84.890523867,"alt":305.445,"epx":1.915,"epy":2.501,"epv":7.303,"track":58.6456,"speed":1.903,"climb":-0.001,"eps":0.12,"epc":14.61}
{"class":"PPS","device":"/dev/ttyUSB3","real_sec":1603741704, "real_nsec":0,"clock_sec":1603741704,"clock_nsec":9570821,"precision":-10}
{"class":"TPV","device":"/dev/ttyUSB3","status":2,"mode":3,"time":"2020-10-26T19:48:24.000Z","ept":0.005,"lat":41.581139732,"lon":-84.890502110,"alt":305.261,"epx":1.915,"epy":2.501,"epv":7.303,"track":77.7509,"speed":1.944,"climb":-0.118,"eps":0.10,"epc":14.61}
{"class":"SKY","device":"/dev/ttyUSB3","xdop":0.51,"ydop":0.67,"vdop":1.27,"tdop":0.70,"hdop":0.69,"gdop":1.60,"pdop":1.44,"satellites":[{"PRN":1,"el":11,"az":324,"ss":42,"used":true},{"PRN":10,"el":76,"az":112,"ss":51,"used":true},{"PRN":11,"el":16,"az":297,"ss":36,"used":true},{"PRN":12,"el":21,"az":87,"ss":39,"used":true},{"PRN":20,"el":39,"az":133,"ss":48,"used":true},{"PRN":21,"el":34,"az":294,"ss":44,"used":true},{"PRN":23,"el":43,"az":125,"ss":46,"used":true},{"PRN":24,"el":21,"az":47,"ss":42,"used":true},{"PRN":25,"el":19,"az":126,"ss":43,"used":true},{"PRN":31,"el":25,"az":205,"ss":43,"used":true},{"PRN":32,"el":65,"az":297,"ss":46,"used":true},{"PRN":131,"el":32,"az":223,"ss":38,"used":true},{"PRN":133,"el":25,"az":236,"ss":36,"used":true},{"PRN":138,"el":37,"az":212,"ss":42,"used":true}]}
{"class":"PPS","device":"/dev/ttyUSB3","real_sec":1603741705, "real_nsec":0,"clock_sec":1603741705,"clock_nsec":9393303,"precision":-10}
{"class":"TPV","device":"/dev/ttyUSB3","status":2,"mode":3,"time":"2020-10-26T19:48:25.000Z","ept":0.005,"lat":41.581138327,"lon":-84.890480125,"alt":305.181,"epx":1.910,"epy":2.503,"epv":7.303,"track":100.2665,"speed":1.921,"climb":-0.051,"eps":0.10,"epc":14.61}
{"class":"PPS","device":"/dev/ttyUSB3","real_sec":1603741706, "real_nsec":0,"clock_sec":1603741706,"clock_nsec":9285778,"precision":-10}
{"class":"TPV","device":"/dev/ttyUSB3","status":2,"mode":3,"time":"2020-10-26T19:48:26.000Z","ept":0.005,"lat":41.581132257,"lon":-84.890459156,"alt":305.006,"epx":1.910,"epy":2.503,"epv":7.303,"track":114.3704,"speed":1.897,"climb":-0.112,"eps":0.09,"epc":14.61}
{"class":"PPS","device":"/dev/ttyUSB3","real_sec":1603741707, "real_nsec":0,"clock_sec":1603741707,"clock_nsec":9171254,"precision":-10}
{"class":"TPV","device":"/dev/ttyUSB3","status":2,"mode":3,"time":"2020-10-26T19:48:27.000Z","ept":0.005,"lat":41.581121246,"lon":-84.890443804,"alt":304.893,"epx":1.910,"epy":2.503,"epv":7.303,"track":135.7045,"speed":1.774,"climb":0.015,"eps":0.10,"epc":14.61}
{"class":"PPS","device":"/dev/ttyUSB3","real_sec":1603741708, "real_nsec":0,"clock_sec":1603741708,"clock_nsec":9314706,"precision":-10}
{"class":"TPV","device":"/dev/ttyUSB3","status":2,"mode":3,"time":"2020-10-26T19:48:28.000Z","ept":0.005,"lat":41.581108005,"lon":-84.890434039,"alt":304.773,"epx":1.910,"epy":2.503,"epv":7.303,"track":154.8456,"speed":1.656,"climb":0.002,"eps":0.10,"epc":14.61}
{"class":"PPS","device":"/dev/ttyUSB3","real_sec":1603741709, "real_nsec":0,"clock_sec":1603741709,"clock_nsec":8991202,"precision":-10}
{"class":"TPV","device":"/dev/ttyUSB3","status":2,"mode":3,"time":"2020-10-26T19:48:29.000Z","ept":0.005,"lat":41.581094508,"lon":-84.890426271,"alt":304.715,"epx":1.910,"epy":2.503,"epv":7.303,"track":157.4225,"speed":1.662,"climb":0.057,"eps":0.10,"epc":14.61}
{"class":"PPS","device":"/dev/ttyUSB3","real_sec":1603741710, "real_nsec":0,"clock_sec":1603741710,"clock_nsec":8889343,"precision":-10}
{"class":"TPV","device":"/dev/ttyUSB3","status":2,"mode":3,"time":"2020-10-26T19:48:30.000Z","ept":0.005,"lat":41.581079498,"lon":-84.890420399,"alt":304.770,"epx":1.910,"epy":2.503,"epv":7.303,"track":164.8944,"speed":1.782,"climb":0.086,"eps":0.11,"epc":14.61}
{"class":"PPS","device":"/dev/ttyUSB3","real_sec":1603741711, "real_nsec":0,"clock_sec":1603741711,"clock_nsec":8826481,"precision":-10}
{"class":"TPV","device":"/dev/ttyUSB3","status":2,"mode":3,"time":"2020-10-26T19:48:31.000Z","ept":0.005,"lat":41.581062914,"lon":-84.890416675,"alt":304.797,"epx":1.910,"epy":2.503,"epv":7.303,"track":172.4975,"speed":1.838,"climb":0.050,"eps":0.10,"epc":14.61}
{"class":"PPS","device":"/dev/ttyUSB3","real_sec":1603741712, "real_nsec":0,"clock_sec":1603741712,"clock_nsec":8729288,"precision":-10}
{"class":"TPV","device":"/dev/ttyUSB3","status":2,"mode":3,"time":"2020-10-26T19:48:32.000Z","ept":0.005,"lat":41.581045716,"lon":-84.890415480,"alt":304.765,"epx":1.910,"epy":2.503,"epv":7.303,"track":178.6342,"speed":1.903,"climb":0.035,"eps":0.11,"epc":14.61}
{"class":"PPS","device":"/dev/ttyUSB3","real_sec":1603741713, "real_nsec":0,"clock_sec":1603741713,"clock_nsec":9633667,"precision":-10}
{"class":"TPV","device":"/dev/ttyUSB3","status":2,"mode":3,"time":"2020-10-26T19:48:33.000Z","ept":0.005,"lat":41.581028422,"lon":-84.890415664,"alt":304.791,"epx":1.910,"epy":2.503,"epv":7.303,"track":180.5095,"speed":1.919,"climb":0.054,"eps":0.11,"epc":14.61}
{"class":"PPS","device":"/dev/ttyUSB3","real_sec":1603741714, "real_nsec":0,"clock_sec":1603741714,"clock_nsec":9617467,"precision":-10}
{"class":"TPV","device":"/dev/ttyUSB3","status":2,"mode":3,"time":"2020-10-26T19:48:34.000Z","ept":0.005,"lat":41.581010144,"lon":-84.890415770,"alt":304.773,"epx":1.910,"epy":2.503,"epv":7.303,"track":179.5131,"speed":2.051,"climb":0.021,"eps":0.12,"epc":14.61}
{"class":"SKY","device":"/dev/ttyUSB3","xdop":0.51,"ydop":0.67,"vdop":1.27,"tdop":0.70,"hdop":0.69,"gdop":1.60,"pdop":1.44,"satellites":[{"PRN":1,"el":11,"az":324,"ss":34,"used":true},{"PRN":10,"el":76,"az":112,"ss":51,"used":true},{"PRN":11,"el":16,"az":297,"ss":43,"used":true},{"PRN":12,"el":21,"az":87,"ss":44,"used":true},{"PRN":20,"el":39,"az":134,"ss":45,"used":true},{"PRN":21,"el":34,"az":294,"ss":42,"used":true},{"PRN":23,"el":43,"az":125,"ss":46,"used":true},{"PRN":24,"el":21,"az":47,"ss":37,"used":true},{"PRN":25,"el":19,"az":125,"ss":46,"used":true},{"PRN":31,"el":25,"az":205,"ss":42,"used":true},{"PRN":32,"el":65,"az":297,"ss":47,"used":true},{"PRN":131,"el":32,"az":223,"ss":44,"used":true},{"PRN":133,"el":25,"az":236,"ss":45,"used":true},{"PRN":138,"el":37,"az":212,"ss":43,"used":true}]}
{"class":"PPS","device":"/dev/ttyUSB3","real_sec":1603741715, "real_nsec":0,"clock_sec":1603741715,"clock_nsec":9448614,"precision":-10}
{"class":"TPV","device":"/dev/ttyUSB3","status":2,"mode":3,"time":"2020-10-26T19:48:35.000Z","ept":0.005,"lat":41.580992545,"lon":-84.890416333,"alt":304.792,"epx":1.908,"epy":2.506,"epv":7.303,"track":180.5156,"speed":1.897,"climb":0.073,"eps":0.12,"epc":14.61}
{"class":"PPS","device":"/dev/ttyUSB3","real_sec":1603741716, "real_nsec":0,"clock_sec":1603741716,"clock_nsec":9311426,"precision":-10}
{"class":"TPV","device":"/dev/ttyUSB3","status":2,"mode":3,"time":"2020-10-26T19:48:36.000Z","ept":0.005,"lat":41.580973845,"lon":-84.890416732,"alt":304.797,"epx":1.908,"epy":2.506,"epv":7.303,"track":178.9257,"speed":2.143,"climb":0.050,"eps":0.12,"epc":14.61}
{"class":"PPS","device":"/dev/ttyUSB3","real_sec":1603741717, "real_nsec":0,"clock_sec":1603741717,"clock_nsec":9220233,"precision":-10}
{"class":"TPV","device":"/dev/ttyUSB3","status":2,"mode":3,"time":"2020-10-26T19:48:37.000Z","ept":0.005,"lat":41.580953721,"lon":-84.890417566,"alt":304.604,"epx":1.908,"epy":2.506,"epv":7.303,"track":180.1072,"speed":2.196,"climb":0.064,"eps":0.12,"epc":14.61}
{"class":"PPS","device":"/dev/ttyUSB3","real_sec":1603741718, "real_nsec":0,"clock_sec":1603741718,"clock_nsec":9118374,"precision":-10}
{"class":"TPV","device":"/dev/ttyUSB3","status":2,"mode":3,"time":"2020-10-26T19:48:38.000Z","ept":0.005,"lat":41.580934385,"lon":-84.890418464,"alt":304.569,"epx":1.908,"epy":2.506,"epv":7.303,"track":181.1097,"speed":2.085,"climb":0.105,"eps":0.12,"epc":14.61}
{"class":"PPS","device":"/dev/ttyUSB3","real_sec":1603741719, "real_nsec":0,"clock_sec":1603741719,"clock_nsec":9196499,"precision":-10}
{"class":"TPV","device":"/dev/ttyUSB3","status":2,"mode":3,"time":"2020-10-26T19:48:39.000Z","ept":0.005,"lat":41.580915237,"lon":-84.890418558,"alt":304.600,"epx":1.908,"epy":2.506,"epv":7.303,"track":178.9888,"speed":2.126,"climb":0.105,"eps":0.12,"epc":14.61}
{"class":"PPS","device":"/dev/ttyUSB3","real_sec":1603741720, "real_nsec":0,"clock_sec":1603741720,"clock_nsec":8925989,"precision":-10}
{"class":"TPV","device":"/dev/ttyUSB3","status":2,"mode":3,"time":"2020-10-26T19:48:40.000Z","ept":0.005,"lat":41.580896547,"lon":-84.890418522,"alt":304.665,"epx":1.908,"epy":2.506,"epv":7.303,"track":179.2883,"speed":2.147,"climb":0.099,"eps":0.12,"epc":14.61}
{"class":"PPS","device":"/dev/ttyUSB3","real_sec":1603741721, "real_nsec":0,"clock_sec":1603741721,"clock_nsec":8830797,"precision":-10}
{"class":"TPV","device":"/dev/ttyUSB3","status":2,"mode":3,"time":"2020-10-26T19:48:41.000Z","ept":0.005,"lat":41.580878567,"lon":-84.890418443,"alt":304.746,"epx":1.908,"epy":2.506,"epv":7.303,"track":180.2172,"speed":2.067,"climb":0.085,"eps":0.12,"epc":14.61}
{"class":"PPS","device":"/dev/ttyUSB3","real_sec":1603741722, "real_nsec":0,"clock_sec":1603741722,"clock_nsec":8738937,"precision":-10}
{"class":"TPV","device":"/dev/ttyUSB3","status":2,"mode":3,"time":"2020-10-26T19:48:42.000Z","ept":0.005,"lat":41.580860121,"lon":-84.890418688,"alt":304.885,"epx":1.908,"epy":2.506,"epv":7.303,"track":180.0393,"speed":2.094,"climb":0.115,"eps":0.12,"epc":14.61}
{"class":"PPS","device":"/dev/ttyUSB3","real_sec":1603741723, "real_nsec":0,"clock_sec":1603741723,"clock_nsec":8647744,"precision":-10}
{"class":"TPV","device":"/dev/ttyUSB3","status":2,"mode":3,"time":"2020-10-26T19:48:43.000Z","ept":0.005,"lat":41.580841123,"lon":-84.890418803,"alt":304.958,"epx":1.908,"epy":2.506,"epv":7.303,"track":180.1318,"speed":2.173,"climb":0.098,"eps":0.12,"epc":14.61}
{"class":"PPS","device":"/dev/ttyUSB3","real_sec":1603741724, "real_nsec":0,"clock_sec":1603741724,"clock_nsec":9613784,"precision":-10}
{"class":"TPV","device":"/dev/ttyUSB3","status":2,"mode":3,"time":"2020-10-26T19:48:44.000Z","ept":0.005,"lat":41.580821297,"lon":-84.890418646,"alt":305.059,"epx":1.908,"epy":2.506,"epv":7.303,"track":178.6504,"speed":2.294,"climb":0.159,"eps":0.12,"epc":14.61}
{"class":"SKY","device":"/dev/ttyUSB3","xdop":0.51,"ydop":0.67,"vdop":1.27,"tdop":0.70,"hdop":0.69,"gdop":1.60,"pdop":1.44,"satellites":[{"PRN":1,"el":11,"az":324,"ss":36,"used":true},{"PRN":10,"el":76,"az":112,"ss":51,"used":true},{"PRN":11,"el":16,"az":297,"ss":41,"used":true},{"PRN":12,"el":21,"az":87,"ss":45,"used":true},{"PRN":20,"el":39,"az":134,"ss":46,"used":true},{"PRN":21,"el":34,"az":294,"ss":41,"used":true},{"PRN":23,"el":43,"az":125,"ss":47,"used":true},{"PRN":24,"el":21,"az":47,"ss":38,"used":true},{"PRN":25,"el":19,"az":125,"ss":45,"used":true},{"PRN":31,"el":26,"az":205,"ss":41,"used":true},{"PRN":32,"el":65,"az":298,"ss":48,"used":true},{"PRN":131,"el":32,"az":223,"ss":44,"used":true},{"PRN":133,"el":25,"az":236,"ss":44,"used":true},{"PRN":138,"el":37,"az":212,"ss":41,"used":true}]}
{"class":"PPS","device":"/dev/ttyUSB3","real_sec":1603741725, "real_nsec":0,"clock_sec":1603741725,"clock_nsec":9540589,"precision":-10}
{"class":"TPV","device":"/dev/ttyUSB3","status":2,"mode":3,"time":"2020-10-26T19:48:45.000Z","ept":0.005,"lat":41.580801219,"lon":-84.890418196,"alt":305.072,"epx":1.913,"epy":2.522,"epv":7.303,"track":178.8589,"speed":2.303,"climb":0.124,"eps":0.12,"epc":14.61}
{"class":"PPS","device":"/dev/ttyUSB3","real_sec":1603741726, "real_nsec":0,"clock_sec":1603741726,"clock_nsec":9394068,"precision":-10}
{"class":"TPV","device":"/dev/ttyUSB3","status":2,"mode":3,"time":"2020-10-26T19:48:46.000Z","ept":0.005,"lat":41.580780938,"lon":-84.890417746,"alt":305.064,"epx":1.913,"epy":2.522,"epv":7.303,"track":178.6463,"speed":2.325,"climb":0.119,"eps":0.12,"epc":14.61}
{"class":"PPS","device":"/dev/ttyUSB3","real_sec":1603741727, "real_nsec":0,"clock_sec":1603741727,"clock_nsec":9271211,"precision":-10}
{"class":"TPV","device":"/dev/ttyUSB3","status":2,"mode":3,"time":"2020-10-26T19:48:47.000Z","ept":0.005,"lat":41.580759618,"lon":-84.890418000,"alt":305.081,"epx":1.913,"epy":2.522,"epv":7.303,"track":179.8743,"speed":2.336,"climb":0.102,"eps":0.12,"epc":14.61}
{"class":"PPS","device":"/dev/ttyUSB3","real_sec":1603741728, "real_nsec":0,"clock_sec":1603741728,"clock_nsec":9785627,"precision":-10}
{"class":"TPV","device":"/dev/ttyUSB3","status":2,"mode":3,"time":"2020-10-26T19:48:48.000Z","ept":0.005,"lat":41.580738740,"lon":-84.890418440,"alt":305.073,"epx":1.913,"epy":2.522,"epv":7.303,"track":180.3801,"speed":2.364,"climb":0.088,"eps":0.12,"epc":14.61}
{"class":"PPS","device":"/dev/ttyUSB3","real_sec":1603741729, "real_nsec":0,"clock_sec":1603741729,"clock_nsec":9080826,"precision":-10}
{"class":"TPV","device":"/dev/ttyUSB3","status":2,"mode":3,"time":"2020-10-26T19:48:49.000Z","ept":0.005,"lat":41.580717288,"lon":-84.890418585,"alt":305.092,"epx":1.913,"epy":2.522,"epv":7.303,"track":179.8984,"speed":2.388,"climb":0.070,"eps":0.12,"epc":14.61}
{"class":"PPS","device":"/dev/ttyUSB3","real_sec":1603741730, "real_nsec":0,"clock_sec":1603741730,"clock_nsec":8973635,"precision":-10}
{"class":"TPV","device":"/dev/ttyUSB3","status":2,"mode":3,"time":"2020-10-26T19:48:50.000Z","ept":0.005,"lat":41.580695507,"lon":-84.890419078,"alt":305.061,"epx":1.913,"epy":2.522,"epv":7.303,"track":180.8181,"speed":2.432,"climb":0.013,"eps":0.12,"epc":14.61}
{"class":"PPS","device":"/dev/ttyUSB3","real_sec":1603741731, "real_nsec":0,"clock_sec":1603741731,"clock_nsec":8901440,"precision":-10}
{"class":"TPV","device":"/dev/ttyUSB3","status":2,"mode":3,"time":"2020-10-26T19:48:51.000Z","ept":0.005,"lat":41.580674327,"lon":-84.890419789,"alt":305.060,"epx":1.913,"epy":2.522,"epv":7.303,"track":181.0543,"speed":2.380,"climb":0.045,"eps":0.12,"epc":14.61}
{"class":"PPS","device":"/dev/ttyUSB3","real_sec":1603741732, "real_nsec":0,"clock_sec":1603741732,"clock_nsec":8804914,"precision":-10}
{"class":"TPV","device":"/dev/ttyUSB3","status":2,"mode":3,"time":"2020-10-26T19:48:52.000Z","ept":0.005,"lat":41.580652905,"lon":-84.890420446,"alt":304.970,"epx":1.913,"epy":2.522,"epv":7.303,"track":180.5079,"speed":2.391,"climb":-0.003,"eps":0.12,"epc":14.61}
{"class":"PPS","device":"/dev/ttyUSB3","real_sec":1603741733, "real_nsec":0,"clock_sec":1603741733,"clock_nsec":8725720,"precision":-10}
{"class":"TPV","device":"/dev/ttyUSB3","status":2,"mode":3,"time":"2020-10-26T19:48:53.000Z","ept":0.005,"lat":41.580631168,"lon":-84.890420233,"alt":304.964,"epx":1.913,"epy":2.522,"epv":7.303,"track":179.7945,"speed":2.422,"climb":-0.027,"eps":0.12,"epc":14.61}
{"class":"PPS","device":"/dev/ttyUSB3","real_sec":1603741734, "real_nsec":0,"clock_sec":1603741734,"clock_nsec":9675428,"precision":-10}
{"class":"TPV","device":"/dev/ttyUSB3","status":2,"mode":3,"time":"2020-10-26T19:48:54.000Z","ept":0.005,"lat":41.580609696,"lon":-84.890419792,"alt":305.000,"epx":1.913,"epy":2.522,"epv":7.303,"track":179.2941,"speed":2.394,"climb":-0.014,"eps":0.11,"epc":14.61}
{"class":"SKY","device":"/dev/ttyUSB3","xdop":0.51,"ydop":0.67,"vdop":1.27,"tdop":0.70,"hdop":0.69,"gdop":1.60,"pdop":1.44,"satellites":[{"PRN":1,"el":11,"az":324,"ss":34,"used":true},{"PRN":10,"el":76,"az":112,"ss":51,"used":true},{"PRN":11,"el":16,"az":297,"ss":41,"used":true},{"PRN":12,"el":21,"az":87,"ss":44,"used":true},{"PRN":20,"el":39,"az":134,"ss":46,"used":true},{"PRN":21,"el":34,"az":294,"ss":42,"used":true},{"PRN":23,"el":43,"az":125,"ss":45,"used":true},{"PRN":24,"el":21,"az":47,"ss":37,"used":true},{"PRN":25,"el":19,"az":125,"ss":46,"used":true},{"PRN":31,"el":26,"az":205,"ss":44,"used":true},{"PRN":32,"el":65,"az":298,"ss":48,"used":true},{"PRN":131,"el":32,"az":223,"ss":44,"used":true},{"PRN":133,"el":25,"az":236,"ss":44,"used":true},{"PRN":138,"el":37,"az":212,"ss":43,"used":true}]}
{"class":"PPS","device":"/dev/ttyUSB3","real_sec":1603741735, "real_nsec":0,"clock_sec":1603741735,"clock_nsec":9569569,"precision":-10}
{"class":"TPV","device":"/dev/ttyUSB3","status":2,"mode":3,"time":"2020-10-26T19:48:55.000Z","ept":0.005,"lat":41.580588614,"lon":-84.890419666,"alt":305.017,"epx":1.913,"epy":2.522,"epv":7.303,"track":180.1888,"speed":2.327,"climb":0.001,"eps":0.11,"epc":14.61}
{"class":"PPS","device":"/dev/ttyUSB3","real_sec":1603741736, "real_nsec":0,"clock_sec":1603741736,"clock_nsec":9414049,"precision":-10}
{"class":"TPV","device":"/dev/ttyUSB3","status":2,"mode":3,"time":"2020-10-26T19:48:56.000Z","ept":0.005,"lat":41.580567906,"lon":-84.890419389,"alt":305.033,"epx":1.913,"epy":2.522,"epv":7.303,"track":179.9433,"speed":2.313,"climb":0.015,"eps":0.11,"epc":14.61}
{"class":"PPS","device":"/dev/ttyUSB3","real_sec":1603741737, "real_nsec":0,"clock_sec":1603741737,"clock_nsec":9312191,"precision":-10}
{"class":"TPV","device":"/dev/ttyUSB3","status":2,"mode":3,"time":"2020-10-26T19:48:57.000Z","ept":0.005,"lat":41.580547706,"lon":-84.890418733,"alt":305.075,"epx":1.913,"epy":2.522,"epv":7.303,"track":179.1685,"speed":2.278,"climb":0.036,"eps":0.12,"epc":14.61}
{"class":"PPS","device":"/dev/ttyUSB3","real_sec":1603741738, "real_nsec":0,"clock_sec":1603741738,"clock_nsec":9218331,"precision":-10}
{"class":"TPV","device":"/dev/ttyUSB3","status":2,"mode":3,"time":"2020-10-26T19:48:58.000Z","ept":0.005,"lat":41.580527050,"lon":-84.890418434,"alt":305.070,"epx":1.913,"epy":2.522,"epv":7.303,"track":180.1245,"speed":2.300,"climb":-0.014,"eps":0.11,"epc":14.61}
{"class":"PPS","device":"/dev/ttyUSB3","real_sec":1603741739, "real_nsec":0,"clock_sec":1603741739,"clock_nsec":9161802,"precision":-10}
{"class":"TPV","device":"/dev/ttyUSB3","status":2,"mode":3,"time":"2020-10-26T19:48:59.000Z","ept":0.005,"lat":41.580506524,"lon":-84.890418017,"alt":305.078,"epx":1.913,"epy":2.522,"epv":7.303,"track":179.1053,"speed":2.288,"climb":-0.013,"eps":0.12,"epc":14.61}
{"class":"PPS","device":"/dev/ttyUSB3","real_sec":1603741740, "real_nsec":0,"clock_sec":1603741740,"clock_nsec":9018614,"precision":-10}
{"class":"TPV","device":"/dev/ttyUSB3","status":2,"mode":3,"time":"2020-10-26T19:49:00.000Z","ept":0.005,"lat":41.580486115,"lon":-84.890417891,"alt":305.161,"epx":1.913,"epy":2.522,"epv":7.303,"track":179.9202,"speed":2.284,"climb":0.028,"eps":0.12,"epc":14.61}
{"class":"PPS","device":"/dev/ttyUSB3","real_sec":1603741741, "real_nsec":0,"clock_sec":1603741741,"clock_nsec":8928421,"precision":-10}
{"class":"TPV","device":"/dev/ttyUSB3","status":2,"mode":3,"time":"2020-10-26T19:49:01.000Z","ept":0.005,"lat":41.580465942,"lon":-84.890418168,"alt":305.171,"epx":1.913,"epy":2.522,"epv":7.303,"track":180.3346,"speed":2.256,"climb":-0.003,"eps":0.12,"epc":14.61}
{"class":"PPS","device":"/dev/ttyUSB3","real_sec":1603741742, "real_nsec":0,"clock_sec":1603741742,"clock_nsec":8817230,"precision":-10}
{"class":"TPV","device":"/dev/ttyUSB3","status":2,"mode":3,"time":"2020-10-26T19:49:02.000Z","ept":0.005,"lat":41.580445553,"lon":-84.890418316,"alt":305.146,"epx":1.913,"epy":2.522,"epv":7.303,"track":179.5776,"speed":2.266,"climb":-0.008,"eps":0.12,"epc":14.61}
{"class":"PPS","device":"/dev/ttyUSB3","real_sec":1603741743, "real_nsec":0,"clock_sec":1603741743,"clock_nsec":8739702,"precision":-10}
{"class":"TPV","device":"/dev/ttyUSB3","status":2,"mode":3,"time":"2020-10-26T19:49:03.000Z","ept":0.005,"lat":41.580425183,"lon":-84.890418376,"alt":305.165,"epx":1.913,"epy":2.522,"epv":7.303,"track":180.4202,"speed":2.283,"climb":0.026,"eps":0.12,"epc":14.61}
{"class":"PPS","device":"/dev/ttyUSB3","real_sec":1603741744, "real_nsec":0,"clock_sec":1603741744,"clock_nsec":9707741,"precision":-10}
{"class":"TPV","device":"/dev/ttyUSB3","status":2,"mode":3,"time":"2020-10-26T19:49:04.000Z","ept":0.005,"lat":41.580404445,"lon":-84.890418598,"alt":305.200,"epx":1.913,"epy":2.522,"epv":7.303,"track":180.3727,"speed":2.299,"climb":-0.015,"eps":0.12,"epc":14.61}
{"class":"SKY","device":"/dev/ttyUSB3","xdop":0.51,"ydop":0.67,"vdop":1.27,"tdop":0.70,"hdop":0.69,"gdop":1.61,"pdop":1.45,"satellites":[{"PRN":1,"el":12,"az":324,"ss":35,"used":true},{"PRN":10,"el":75,"az":113,"ss":51,"used":true},{"PRN":11,"el":16,"az":297,"ss":41,"used":true},{"PRN":12,"el":21,"az":87,"ss":43,"used":true},{"PRN":20,"el":39,"az":134,"ss":45,"used":true},{"PRN":21,"el":34,"az":294,"ss":42,"used":true},{"PRN":23,"el":43,"az":125,"ss":45,"used":true},{"PRN":24,"el":21,"az":47,"ss":36,"used":true},{"PRN":25,"el":19,"az":125,"ss":45,"used":true},{"PRN":31,"el":26,"az":205,"ss":42,"used":true},{"PRN":32,"el":65,"az":298,"ss":48,"used":true},{"PRN":131,"el":32,"az":223,"ss":44,"used":true},{"PRN":133,"el":25,"az":236,"ss":45,"used":true},{"PRN":138,"el":37,"az":212,"ss":42,"used":true}]}
{"class":"PPS","device":"/dev/ttyUSB3","real_sec":1603741745, "real_nsec":0,"clock_sec":1603741745,"clock_nsec":9592217,"precision":-10}
{"class":"TPV","device":"/dev/ttyUSB3","status":2,"mode":3,"time":"2020-10-26T19:49:05.000Z","ept":0.005,"lat":41.580383945,"lon":-84.890418440,"alt":305.235,"epx":1.913,"epy":2.521,"epv":7.303,"track":179.6248,"speed":2.279,"climb":0.007,"eps":0.12,"epc":14.61}
{"class":"PPS","device":"/dev/ttyUSB3","real_sec":1603741746, "real_nsec":0,"clock_sec":1603741746,"clock_nsec":9524355,"precision":-10}
{"class":"TPV","device":"/dev/ttyUSB3","status":2,"mode":3,"time":"2020-10-26T19:49:06.000Z","ept":0.005,"lat":41.580363275,"lon":-84.890418325,"alt":305.306,"epx":1.913,"epy":2.521,"epv":7.303,"track":179.8979,"speed":2.285,"climb":0.014,"eps":0.12,"epc":14.61}
{"class":"PPS","device":"/dev/ttyUSB3","real_sec":1603741747, "real_nsec":0,"clock_sec":1603741747,"clock_nsec":9352503,"precision":-10}
{"class":"TPV","device":"/dev/ttyUSB3","status":2,"mode":3,"time":"2020-10-26T19:49:07.000Z","ept":0.005,"lat":41.580342769,"lon":-84.890418048,"alt":305.342,"epx":1.913,"epy":2.521,"epv":7.303,"track":179.8735,"speed":2.248,"climb":0.033,"eps":0.12,"epc":14.61}
{"class":"PPS","device":"/dev/ttyUSB3","real_sec":1603741748, "real_nsec":0,"clock_sec":1603741748,"clock_nsec":9260644,"precision":-10}
{"class":"TPV","device":"/dev/ttyUSB3","status":2,"mode":3,"time":"2020-10-26T19:49:08.000Z","ept":0.005,"lat":41.580322572,"lon":-84.890417752,"alt":305.233,"epx":1.913,"epy":2.521,"epv":7.303,"track":180.0594,"speed":2.243,"climb":-0.004,"eps":0.12,"epc":14.61}
{"class":"PPS","device":"/dev/ttyUSB3","real_sec":1603741749, "real_nsec":0,"clock_sec":1603741749,"clock_nsec":9234778,"precision":-10}
{"class":"TPV","device":"/dev/ttyUSB3","status":2,"mode":3,"time":"2020-10-26T19:49:09.000Z","ept":0.005,"lat":41.580301908,"lon":-84.890417780,"alt":305.183,"epx":1.913,"epy":2.521,"epv":7.303,"track":179.8070,"speed":2.266,"climb":-0.023,"eps":0.12,"epc":14.61}
{"class":"PPS","device":"/dev/ttyUSB3","real_sec":1603741750, "real_nsec":0,"clock_sec":1603741750,"clock_nsec":9130253,"precision":-10}
{"class":"TPV","device":"/dev/ttyUSB3","status":2,"mode":3,"time":"2020-10-26T19:49:10.000Z","ept":0.005,"lat":41.580281382,"lon":-84.890417699,"alt":305.161,"epx":1.913,"epy":2.521,"epv":7.303,"track":180.0814,"speed":2.264,"climb":-0.009,"eps":0.11,"epc":14.61}
{"class":"PPS","device":"/dev/ttyUSB3","real_sec":1603741751, "real_nsec":0,"clock_sec":1603741751,"clock_nsec":8980399,"precision":-10}
{"class":"TPV","device":"/dev/ttyUSB3","status":2,"mode":3,"time":"2020-10-26T19:49:11.000Z","ept":0.005,"lat":41.580260753,"lon":-84.890417661,"alt":305.182,"epx":1.913,"epy":2.521,"epv":7.303,"track":180.3109,"speed":2.265,"climb":-0.024,"eps":0.11,"epc":14.61}
{"class":"PPS","device":"/dev/ttyUSB3","real_sec":1603741752, "real_nsec":0,"clock_sec":1603741752,"clock_nsec":8871208,"precision":-10}
{"class":"TPV","device":"/dev/ttyUSB3","status":2,"mode":3,"time":"2020-10-26T19:49:12.000Z","ept":0.005,"lat":41.580240008,"lon":-84.890417872,"alt":305.203,"epx":1.913,"epy":2.521,"epv":7.303,"track":180.5421,"speed":2.257,"climb":-0.032,"eps":0.12,"epc":14.61}
{"class":"PPS","device":"/dev/ttyUSB3","real_sec":1603741753, "real_nsec":0,"clock_sec":1603741753,"clock_nsec":8782015,"precision":-10}
{"class":"TPV","device":"/dev/ttyUSB3","status":2,"mode":3,"time":"2020-10-26T19:49:13.000Z","ept":0.005,"lat":41.580219373,"lon":-84.890418052,"alt":305.194,"epx":1.913,"epy":2.521,"epv":7.303,"track":180.0137,"speed":2.282,"climb":-0.065,"eps":0.12,"epc":14.61}
{"class":"PPS","device":"/dev/ttyUSB3","real_sec":1603741754, "real_nsec":0,"clock_sec":1603741754,"clock_nsec":8739150,"precision":-10}
{"class":"TPV","device":"/dev/ttyUSB3","status":2,"mode":3,"time":"2020-10-26T19:49:14.000Z","ept":0.005,"lat":41.580198571,"lon":-84.890418502,"alt":305.207,"epx":1.913,"epy":2.521,"epv":7.303,"track":180.5350,"speed":2.287,"climb":-0.059,"eps":0.12,"epc":14.61}
{"class":"SKY","device":"/dev/ttyUSB3","xdop":0.51,"ydop":0.67,"vdop":1.27,"tdop":0.70,"hdop":0.69,"gdop":1.61,"pdop":1.45,"satellites":[{"PRN":1,"el":12,"az":324,"ss":34,"used":true},{"PRN":10,"el":75,"az":113,"ss":50,"used":true},{"PRN":11,"el":16,"az":297,"ss":42,"used":true},{"PRN":12,"el":21,"az":87,"ss":43,"used":true},{"PRN":20,"el":38,"az":134,"ss":44,"used":true},{"PRN":21,"el":34,"az":293,"ss":42,"used":true},{"PRN":23,"el":43,"az":125,"ss":46,"used":true},{"PRN":24,"el":21,"az":47,"ss":35,"used":true},{"PRN":25,"el":19,"az":125,"ss":45,"used":true},{"PRN":31,"el":26,"az":205,"ss":43,"used":true},{"PRN":32,"el":65,"az":298,"ss":47,"used":true},{"PRN":131,"el":32,"az":223,"ss":44,"used":true},{"PRN":133,"el":25,"az":236,"ss":44,"used":true},{"PRN":138,"el":37,"az":212,"ss":42,"used":true}]}
{"class":"PPS","device":"/dev/ttyUSB3","real_sec":1603741755, "real_nsec":0,"clock_sec":1603741755,"clock_nsec":9815846,"precision":-10}
{"class":"TPV","device":"/dev/ttyUSB3","status":2,"mode":3,"time":"2020-10-26T19:49:15.000Z","ept":0.005,"lat":41.580177429,"lon":-84.890418724,"alt":305.201,"epx":1.909,"epy":2.518,"epv":7.303,"track":180.0575,"speed":2.317,"climb":-0.070,"eps":0.12,"epc":14.61}
{"class":"PPS","device":"/dev/ttyUSB3","real_sec":1603741756, "real_nsec":0,"clock_sec":1603741756,"clock_nsec":9597998,"precision":-10}
{"class":"TPV","device":"/dev/ttyUSB3","status":2,"mode":3,"time":"2020-10-26T19:49:16.000Z","ept":0.005,"lat":41.580156417,"lon":-84.890418827,"alt":305.210,"epx":1.909,"epy":2.518,"epv":7.303,"track":181.0862,"speed":2.365,"climb":-0.077,"eps":0.12,"epc":14.61}
{"class":"PPS","device":"/dev/ttyUSB3","real_sec":1603741757, "real_nsec":0,"clock_sec":1603741757,"clock_nsec":10389388,"precision":-10}
{"class":"TPV","device":"/dev/ttyUSB3","status":2,"mode":3,"time":"2020-10-26T19:49:17.000Z","ept":0.005,"lat":41.580135474,"lon":-84.890418953,"alt":305.105,"epx":1.909,"epy":2.518,"epv":7.360,"track":180.2563,"speed":2.349,"climb":-0.125,"eps":0.12,"epc":14.66}
{"class":"PPS","device":"/dev/ttyUSB3","real_sec":1603741758, "real_nsec":0,"clock_sec":1603741758,"clock_nsec":9303290,"precision":-10}
{"class":"TPV","device":"/dev/ttyUSB3","status":2,"mode":3,"time":"2020-10-26T19:49:18.000Z","ept":0.005,"lat":41.580113973,"lon":-84.890418492,"alt":304.964,"epx":1.909,"epy":2.518,"epv":7.360,"track":178.7830,"speed":2.361,"climb":-0.142,"eps":0.12,"epc":14.72}
{"class":"PPS","device":"/dev/ttyUSB3","real_sec":1603741759, "real_nsec":0,"clock_sec":1603741759,"clock_nsec":9218763,"precision":-10}
{"class":"TPV","device":"/dev/ttyUSB3","status":2,"mode":3,"time":"2020-10-26T19:49:19.000Z","ept":0.005,"lat":41.580090032,"lon":-84.890416735,"alt":304.917,"epx":1.909,"epy":2.518,"epv":7.360,"track":175.0317,"speed":2.663,"climb":-0.098,"epd":86.7849,"eps":0.11,"epc":14.72}
{"class":"PPS","device":"/dev/ttyUSB3","real_sec":1603741760, "real_nsec":0,"clock_sec":1603741760,"clock_nsec":9106239,"precision":-10}
{"class":"TPV","device":"/dev/ttyUSB3","status":2,"mode":3,"time":"2020-10-26T19:49:20.000Z","ept":0.005,"lat":41.580065766,"lon":-84.890412027,"alt":304.760,"epx":1.909,"epy":2.518,"epv":7.360,"track":170.3407,"speed":2.735,"climb":-0.096,"epd":85.5002,"eps":0.11,"epc":14.72}
{"class":"PPS","device":"/dev/ttyUSB3","real_sec":1603741761, "real_nsec":0,"clock_sec":1603741761,"clock_nsec":9023045,"precision":-10}
{"class":"TPV","device":"/dev/ttyUSB3","status":2,"mode":3,"time":"2020-10-26T19:49:21.000Z","ept":0.005,"lat":41.580041545,"lon":-84.890405625,"alt":304.598,"epx":1.909,"epy":2.518,"epv":7.360,"track":167.7589,"speed":2.710,"climb":-0.134,"epd":85.1018,"eps":0.10,"epc":14.72}
{"class":"PPS","device":"/dev/ttyUSB3","real_sec":1603741762, "real_nsec":0,"clock_sec":1603741762,"clock_nsec":8953516,"precision":-10}
{"class":"TPV","device":"/dev/ttyUSB3","status":2,"mode":3,"time":"2020-10-26T19:49:22.000Z","ept":0.005,"lat":41.580018059,"lon":-84.890399103,"alt":304.510,"epx":1.909,"epy":2.518,"epv":7.360,"track":167.9222,"speed":2.581,"climb":-0.108,"epd":86.7521,"eps":0.10,"epc":14.72}
{"class":"PPS","device":"/dev/ttyUSB3","real_sec":1603741763, "real_nsec":0,"clock_sec":1603741763,"clock_nsec":8842325,"precision":-10}
{"class":"TPV","device":"/dev/ttyUSB3","status":2,"mode":3,"time":"2020-10-26T19:49:23.000Z","ept":0.005,"lat":41.579995978,"lon":-84.890398229,"alt":304.396,"epx":1.909,"epy":2.518,"epv":7.360,"track":183.1469,"speed":2.417,"climb":-0.157,"eps":0.12,"epc":14.72}
{"class":"PPS","device":"/dev/ttyUSB3","real_sec":1603741764, "real_nsec":0,"clock_sec":1603741764,"clock_nsec":8768464,"precision":-10}
{"class":"TPV","device":"/dev/ttyUSB3","status":2,"mode":3,"time":"2020-10-26T19:49:24.000Z","ept":0.005,"lat":41.579975972,"lon":-84.890406097,"alt":304.279,"epx":1.909,"epy":2.518,"epv":7.360,"track":202.7128,"speed":2.344,"climb":-0.094,"eps":0.13,"epc":14.72}
{"class":"SKY","device":"/dev/ttyUSB3","xdop":0.51,"ydop":0.67,"vdop":1.28,"tdop":0.70,"hdop":0.69,"gdop":1.61,"pdop":1.45,"satellites":[{"PRN":1,"el":12,"az":324,"ss":38,"used":true},{"PRN":10,"el":75,"az":113,"ss":49,"used":true},{"PRN":11,"el":16,"az":297,"ss":42,"used":true},{"PRN":12,"el":21,"az":87,"ss":44,"used":true},{"PRN":20,"el":38,"az":134,"ss":47,"used":true},{"PRN":21,"el":34,"az":293,"ss":46,"used":true},{"PRN":23,"el":42,"az":125,"ss":46,"used":true},{"PRN":24,"el":21,"az":47,"ss":35,"used":true},{"PRN":25,"el":20,"az":125,"ss":42,"used":true},{"PRN":31,"el":26,"az":205,"ss":35,"used":true},{"PRN":32,"el":65,"az":298,"ss":49,"used":true},{"PRN":131,"el":32,"az":223,"ss":42,"used":true},{"PRN":133,"el":25,"az":236,"ss":41,"used":true},{"PRN":138,"el":37,"az":212,"ss":44,"used":true}]}
{"class":"PPS","device":"/dev/ttyUSB3","real_sec":1603741765, "real_nsec":0,"clock_sec":1603741765,"clock_nsec":9678842,"precision":-10}
{"class":"TPV","device":"/dev/ttyUSB3","status":2,"mode":3,"time":"2020-10-26T19:49:25.000Z","ept":0.005,"lat":41.579960838,"lon":-84.890424143,"alt":304.124,"epx":1.908,"epy":2.521,"epv":7.360,"track":229.8575,"speed":2.306,"climb":-0.027,"eps":0.13,"epc":14.72}
{"class":"PPS","device":"/dev/ttyUSB3","real_sec":1603741766, "real_nsec":0,"clock_sec":1603741766,"clock_nsec":9619646,"precision":-10}
{"class":"TPV","device":"/dev/ttyUSB3","status":2,"mode":3,"time":"2020-10-26T19:49:26.000Z","ept":0.005,"lat":41.579953674,"lon":-84.890448637,"alt":304.087,"epx":1.908,"epy":2.521,"epv":7.360,"track":256.1741,"speed":2.208,"climb":0.067,"eps":0.12,"epc":14.72}
{"class":"PPS","device":"/dev/ttyUSB3","real_sec":1603741767, "real_nsec":0,"clock_sec":1603741767,"clock_nsec":9457793,"precision":-10}
{"class":"TPV","device":"/dev/ttyUSB3","status":2,"mode":3,"time":"2020-10-26T19:49:27.000Z","ept":0.005,"lat":41.579954415,"lon":-84.890474724,"alt":304.115,"epx":1.908,"epy":2.521,"epv":7.360,"track":277.2512,"speed":2.195,"climb":0.079,"eps":0.09,"epc":14.72}
{"class":"PPS","device":"/dev/ttyUSB3","real_sec":1603741768, "real_nsec":0,"clock_sec":1603741768,"clock_nsec":9348602,"precision":-10}
{"class":"TPV","device":"/dev/ttyUSB3","status":2,"mode":3,"time":"2020-10-26T19:49:28.000Z","ept":0.005,"lat":41.579962927,"lon":-84.890498542,"alt":304.179,"epx":1.908,"epy":2.521,"epv":7.360,"track":302.8255,"speed":2.215,"climb":0.078,"eps":0.10,"epc":14.72}
{"class":"PPS","device":"/dev/ttyUSB3","real_sec":1603741769, "real_nsec":0,"clock_sec":1603741769,"clock_nsec":9758028,"precision":-10}
{"class":"TPV","device":"/dev/ttyUSB3","status":2,"mode":3,"time":"2020-10-26T19:49:29.000Z","ept":0.005,"lat":41.579977183,"lon":-84.890515818,"alt":304.459,"epx":1.908,"epy":2.521,"epv":7.820,"track":327.6683,"speed":2.128,"climb":0.144,"eps":0.09,"epc":15.18}
{"class":"PPS","device":"/dev/ttyUSB3","real_sec":1603741770, "real_nsec":0,"clock_sec":1603741770,"clock_nsec":9190880,"precision":-10}
{"class":"TPV","device":"/dev/ttyUSB3","status":2,"mode":3,"time":"2020-10-26T19:49:30.000Z","ept":0.005,"lat":41.579994978,"lon":-84.890522864,"alt":304.491,"epx":1.908,"epy":2.521,"epv":7.360,"track":350.5233,"speed":2.135,"climb":0.068,"eps":0.11,"epc":15.18}
{"class":"PPS","device":"/dev/ttyUSB3","real_sec":1603741771, "real_nsec":0,"clock_sec":1603741771,"clock_nsec":9055025,"precision":-10}
{"class":"TPV","device":"/dev/ttyUSB3","status":2,"mode":3,"time":"2020-10-26T19:49:31.000Z","ept":0.005,"lat":41.580014291,"lon":-84.890519599,"alt":304.575,"epx":1.908,"epy":2.521,"epv":7.360,"track":13.0876,"speed":2.218,"climb":0.111,"eps":0.11,"epc":14.72}
{"class":"PPS","device":"/dev/ttyUSB3","real_sec":1603741772, "real_nsec":0,"clock_sec":1603741772,"clock_nsec":8966832,"precision":-10}
{"class":"TPV","device":"/dev/ttyUSB3","status":2,"mode":3,"time":"2020-10-26T19:49:32.000Z","ept":0.005,"lat":41.580033694,"lon":-84.890512297,"alt":304.587,"epx":1.908,"epy":2.521,"epv":7.360,"track":17.7587,"speed":2.314,"climb":0.107,"eps":0.12,"epc":14.72}
{"class":"PPS","device":"/dev/ttyUSB3","real_sec":1603741773, "real_nsec":0,"clock_sec":1603741773,"clock_nsec":8865973,"precision":-10}
{"class":"TPV","device":"/dev/ttyUSB3","status":2,"mode":3,"time":"2020-10-26T19:49:33.000Z","ept":0.005,"lat":41.580052332,"lon":-84.890505144,"alt":304.709,"epx":1.908,"epy":2.521,"epv":7.360,"track":14.9489,"speed":2.148,"climb":0.162,"eps":0.12,"epc":14.72}
{"class":"PPS","device":"/dev/ttyUSB3","real_sec":1603741774, "real_nsec":0,"clock_sec":1603741774,"clock_nsec":8860105,"precision":-10}
{"class":"TPV","device":"/dev/ttyUSB3","status":2,"mode":3,"time":"2020-10-26T19:49:34.000Z","ept":0.005,"lat":41.580070302,"lon":-84.890500650,"alt":304.780,"epx":1.908,"epy":2.521,"epv":7.360,"track":8.7312,"speed":1.962,"climb":0.119,"eps":0.12,"epc":14.72}
{"class":"SKY","device":"/dev/ttyUSB3","xdop":0.51,"ydop":0.67,"vdop":1.28,"tdop":0.70,"hdop":0.69,"gdop":1.61,"pdop":1.45,"satellites":[{"PRN":1,"el":12,"az":324,"ss":36,"used":true},{"PRN":10,"el":75,"az":113,"ss":50,"used":true},{"PRN":11,"el":16,"az":297,"ss":44,"used":true},{"PRN":12,"el":21,"az":87,"ss":43,"used":true},{"PRN":20,"el":38,"az":134,"ss":45,"used":true},{"PRN":21,"el":34,"az":293,"ss":47,"used":true},{"PRN":23,"el":42,"az":125,"ss":45,"used":true},{"PRN":24,"el":21,"az":47,"ss":38,"used":true},{"PRN":25,"el":20,"az":125,"ss":42,"used":true},{"PRN":31,"el":26,"az":205,"ss":40,"used":true},{"PRN":32,"el":65,"az":299,"ss":48,"used":true},{"PRN":131,"el":32,"az":223,"ss":44,"used":true},{"PRN":133,"el":25,"az":236,"ss":40,"used":true},{"PRN":138,"el":37,"az":212,"ss":41,"used":true}]}
{"class":"PPS","device":"/dev/ttyUSB3","real_sec":1603741775, "real_nsec":0,"clock_sec":1603741775,"clock_nsec":8705918,"precision":-10}
{"class":"TPV","device":"/dev/ttyUSB3","status":2,"mode":3,"time":"2020-10-26T19:49:35.000Z","ept":0.005,"lat":41.580087055,"lon":-84.890498577,"alt":304.747,"epx":1.909,"epy":2.518,"epv":7.360,"track":4.2114,"speed":1.838,"climb":0.059,"eps":0.12,"epc":14.72}
{"class":"PPS","device":"/dev/ttyUSB3","real_sec":1603741776, "real_nsec":0,"clock_sec":1603741776,"clock_nsec":9654626,"precision":-10}
{"class":"TPV","device":"/dev/ttyUSB3","status":2,"mode":3,"time":"2020-10-26T19:49:36.000Z","ept":0.005,"lat":41.580104126,"lon":-84.890497579,"alt":304.735,"epx":1.909,"epy":2.518,"epv":7.360,"track":2.7051,"speed":1.937,"climb":0.050,"eps":0.11,"epc":14.72}
{"class":"PPS","device":"/dev/ttyUSB3","real_sec":1603741777, "real_nsec":0,"clock_sec":1603741777,"clock_nsec":9550101,"precision":-10}
{"class":"TPV","device":"/dev/ttyUSB3","status":2,"mode":3,"time":"2020-10-26T19:49:37.000Z","ept":0.005,"lat":41.580122098,"lon":-84.890497179,"alt":304.805,"epx":1.909,"epy":2.518,"epv":7.360,"track":1.0773,"speed":2.015,"climb":0.020,"eps":0.12,"epc":14.72}
{"class":"PPS","device":"/dev/ttyUSB3","real_sec":1603741778, "real_nsec":0,"clock_sec":1603741778,"clock_nsec":9401913,"precision":-10}
{"class":"TPV","device":"/dev/ttyUSB3","status":2,"mode":3,"time":"2020-10-26T19:49:38.000Z","ept":0.005,"lat":41.580139961,"lon":-84.890496027,"alt":304.980,"epx":1.909,"epy":2.518,"epv":7.360,"track":4.3161,"speed":2.032,"climb":0.112,"eps":0.11,"epc":14.72}
{"class":"PPS","device":"/dev/ttyUSB3","real_sec":1603741779, "real_nsec":0,"clock_sec":1603741779,"clock_nsec":9294722,"precision":-10}
{"class":"TPV","device":"/dev/ttyUSB3","status":2,"mode":3,"time":"2020-10-26T19:49:39.000Z","ept":0.005,"lat":41.580159169,"lon":-84.890495658,"alt":305.212,"epx":1.909,"epy":2.518,"epv":7.360,"track":1.4741,"speed":2.171,"climb":0.040,"eps":0.10,"epc":14.72}
{"class":"PPS","device":"/dev/ttyUSB3","real_sec":1603741780, "real_nsec":0,"clock_sec":1603741780,"clock_nsec":10499405,"precision":-10}
{"class":"TPV","device":"/dev/ttyUSB3","status":2,"mode":3,"time":"2020-10-26T19:49:40.000Z","ept":0.005,"lat":41.580178409,"lon":-84.890495669,"alt":305.470,"epx":1.909,"epy":2.518,"epv":7.360,"track":0.8433,"speed":2.139,"climb":0.076,"eps":0.11,"epc":14.72}
{"class":"PPS","device":"/dev/ttyUSB3","real_sec":1603741781, "real_nsec":0,"clock_sec":1603741781,"clock_nsec":9094338,"precision":-10}
{"class":"TPV","device":"/dev/ttyUSB3","status":2,"mode":3,"time":"2020-10-26T19:49:41.000Z","ept":0.005,"lat":41.580197642,"lon":-84.890496211,"alt":305.790,"epx":1.909,"epy":2.518,"epv":7.360,"track":359.2049,"speed":2.167,"climb":0.120,"eps":0.10,"epc":14.72}
{"class":"PPS","device":"/dev/ttyUSB3","real_sec":1603741782, "real_nsec":0,"clock_sec":1603741782,"clock_nsec":9025143,"precision":-10}
{"class":"TPV","device":"/dev/ttyUSB3","status":2,"mode":3,"time":"2020-10-26T19:49:42.000Z","ept":0.005,"lat":41.580217672,"lon":-84.890496310,"alt":306.085,"epx":1.909,"epy":2.518,"epv":7.360,"track":359.4156,"speed":2.249,"climb":0.087,"eps":0.11,"epc":14.72}
{"class":"PPS","device":"/dev/ttyUSB3","real_sec":1603741783, "real_nsec":0,"clock_sec":1603741783,"clock_nsec":8904953,"precision":-10}
{"class":"TPV","device":"/dev/ttyUSB3","status":2,"mode":3,"time":"2020-10-26T19:49:43.000Z","ept":0.005,"lat":41.580237914,"lon":-84.890496442,"alt":306.293,"epx":1.909,"epy":2.518,"epv":7.360,"track":358.9015,"speed":2.236,"climb":0.072,"eps":0.11,"epc":14.72}
{"class":"PPS","device":"/dev/ttyUSB3","real_sec":1603741784, "real_nsec":0,"clock_sec":1603741784,"clock_nsec":8876420,"precision":-10}
{"class":"TPV","device":"/dev/ttyUSB3","status":2,"mode":3,"time":"2020-10-26T19:49:44.000Z","ept":0.005,"lat":41.580258083,"lon":-84.890496118,"alt":306.526,"epx":1.909,"epy":2.518,"epv":7.360,"track":0.2218,"speed":2.253,"climb":0.067,"eps":0.11,"epc":14.72}
{"class":"SKY","device":"/dev/ttyUSB3","xdop":0.51,"ydop":0.67,"vdop":1.28,"tdop":0.70,"hdop":0.69,"gdop":1.61,"pdop":1.45,"satellites":[{"PRN":1,"el":12,"az":324,"ss":41,"used":true},{"PRN":10,"el":75,"az":113,"ss":48,"used":true},{"PRN":11,"el":16,"az":297,"ss":43,"used":true},{"PRN":12,"el":21,"az":87,"ss":45,"used":true},{"PRN":20,"el":38,"az":134,"ss":45,"used":true},{"PRN":21,"el":34,"az":293,"ss":47,"used":true},{"PRN":23,"el":42,"az":125,"ss":46,"used":true},{"PRN":24,"el":21,"az":47,"ss":40,"used":true},{"PRN":25,"el":20,"az":125,"ss":44,"used":true},{"PRN":31,"el":26,"az":205,"ss":41,"used":true},{"PRN":32,"el":65,"az":299,"ss":46,"used":true},{"PRN":131,"el":32,"az":223,"ss":43,"used":true},{"PRN":133,"el":25,"az":236,"ss":44,"used":true},{"PRN":138,"el":37,"az":212,"ss":44,"used":true}]}
{"class":"PPS","device":"/dev/ttyUSB3","real_sec":1603741785, "real_nsec":0,"clock_sec":1603741785,"clock_nsec":8741565,"precision":-10}
{"class":"TPV","device":"/dev/ttyUSB3","status":2,"mode":3,"time":"2020-10-26T19:49:45.000Z","ept":0.005,"lat":41.580278746,"lon":-84.890495958,"alt":306.712,"epx":1.909,"epy":2.518,"epv":7.360,"track":359.8768,"speed":2.308,"climb":0.020,"eps":0.11,"epc":14.72}
{"class":"PPS","device":"/dev/ttyUSB3","real_sec":1603741786, "real_nsec":0,"clock_sec":1603741786,"clock_nsec":10878492,"precision":-10}
{"class":"TPV","device":"/dev/ttyUSB3","status":2,"mode":3,"time":"2020-10-26T19:49:46.000Z","ept":0.005,"lat":41.580299472,"lon":-84.890495679,"alt":306.905,"epx":1.909,"epy":2.518,"epv":7.360,"track":359.9001,"speed":2.337,"climb":0.033,"eps":0.11,"epc":14.72}
{"class":"PPS","device":"/dev/ttyUSB3","real_sec":1603741787, "real_nsec":0,"clock_sec":1603741787,"clock_nsec":9679739,"precision":-10}
{"class":"TPV","device":"/dev/ttyUSB3","status":2,"mode":3,"time":"2020-10-26T19:49:47.000Z","ept":0.005,"lat":41.580320337,"lon":-84.890494977,"alt":307.035,"epx":1.909,"epy":2.518,"epv":7.360,"track":0.8415,"speed":2.314,"climb":0.044,"eps":0.11,"epc":14.72}
{"class":"PPS","device":"/dev/ttyUSB3","real_sec":1603741788, "real_nsec":0,"clock_sec":1603741788,"clock_nsec":9440893,"precision":-10}
{"class":"TPV","device":"/dev/ttyUSB3","status":2,"mode":3,"time":"2020-10-26T19:49:48.000Z","ept":0.005,"lat":41.580341168,"lon":-84.890494678,"alt":307.064,"epx":1.909,"epy":2.518,"epv":7.360,"track":359.6757,"speed":2.322,"climb":0.005,"eps":0.11,"epc":14.72}
{"class":"PPS","device":"/dev/ttyUSB3","real_sec":1603741789, "real_nsec":0,"clock_sec":1603741789,"clock_nsec":9347034,"precision":-10}
{"class":"TPV","device":"/dev/ttyUSB3","status":2,"mode":3,"time":"2020-10-26T19:49:49.000Z","ept":0.005,"lat":41.580362022,"lon":-84.890494411,"alt":307.135,"epx":1.909,"epy":2.518,"epv":7.360,"track":359.8542,"speed":2.301,"climb":0.028,"eps":0.11,"epc":14.72}
{"class":"PPS","device":"/dev/ttyUSB3","real_sec":1603741790, "real_nsec":0,"clock_sec":1603741790,"clock_nsec":9253174,"precision":-10}
{"class":"TPV","device":"/dev/ttyUSB3","status":2,"mode":3,"time":"2020-10-26T19:49:50.000Z","ept":0.005,"lat":41.580382947,"lon":-84.890494036,"alt":307.228,"epx":1.909,"epy":2.518,"epv":7.360,"track":0.6025,"speed":2.285,"climb":0.017,"eps":0.11,"epc":14.72}
{"class":"PPS","device":"/dev/ttyUSB3","real_sec":1603741791, "real_nsec":0,"clock_sec":1603741791,"clock_nsec":9675599,"precision":-10}
{"class":"TPV","device":"/dev/ttyUSB3","status":2,"mode":3,"time":"2020-10-26T19:49:51.000Z","ept":0.005,"lat":41.580403674,"lon":-84.890493780,"alt":307.300,"epx":1.909,"epy":2.518,"epv":7.360,"track":0.3291,"speed":2.294,"climb":0.037,"eps":0.11,"epc":14.72}
{"class":"PPS","device":"/dev/ttyUSB3","real_sec":1603741792, "real_nsec":0,"clock_sec":1603741792,"clock_nsec":9113784,"precision":-10}
{"class":"TPV","device":"/dev/ttyUSB3","status":2,"mode":3,"time":"2020-10-26T19:49:52.000Z","ept":0.005,"lat":41.580424684,"lon":-84.890493317,"alt":307.442,"epx":1.909,"epy":2.518,"epv":7.360,"track":0.8469,"speed":2.299,"climb":0.031,"eps":0.11,"epc":14.72}
{"class":"PPS","device":"/dev/ttyUSB3","real_sec":1603741793, "real_nsec":0,"clock_sec":1603741793,"clock_nsec":9017258,"precision":-10}
{"class":"TPV","device":"/dev/ttyUSB3","status":2,"mode":3,"time":"2020-10-26T19:49:53.000Z","ept":0.005,"lat":41.580445301,"lon":-84.890493093,"alt":307.544,"epx":1.909,"epy":2.518,"epv":7.360,"track":0.5192,"speed":2.258,"climb":0.046,"eps":0.11,"epc":14.72}
{"class":"PPS","device":"/dev/ttyUSB3","real_sec":1603741794, "real_nsec":0,"clock_sec":1603741794,"clock_nsec":8876737,"precision":-10}
{"class":"TPV","device":"/dev/ttyUSB3","status":2,"mode":3,"time":"2020-10-26T19:49:54.000Z","ept":0.005,"lat":41.580466295,"lon":-84.890492609,"alt":307.658,"epx":1.909,"epy":2.518,"epv":7.360,"track":0.6006,"speed":2.292,"climb":0.023,"eps":0.11,"epc":14.72}
{"class":"SKY","device":"/dev/ttyUSB3","xdop":0.51,"ydop":0.67,"vdop":1.28,"tdop":0.70,"hdop":0.69,"gdop":1.61,"pdop":1.45,"satellites":[{"PRN":1,"el":12,"az":324,"ss":37,"used":true},{"PRN":10,"el":75,"az":114,"ss":48,"used":true},{"PRN":11,"el":16,"az":297,"ss":41,"used":true},{"PRN":12,"el":21,"az":86,"ss":45,"used":true},{"PRN":20,"el":38,"az":134,"ss":45,"used":true},{"PRN":21,"el":34,"az":293,"ss":47,"used":true},{"PRN":23,"el":42,"az":125,"ss":45,"used":true},{"PRN":24,"el":21,"az":47,"ss":41,"used":true},{"PRN":25,"el":20,"az":125,"ss":44,"used":true},{"PRN":31,"el":26,"az":205,"ss":37,"used":true},{"PRN":32,"el":65,"az":299,"ss":46,"used":true},{"PRN":131,"el":32,"az":223,"ss":42,"used":true},{"PRN":133,"el":25,"az":236,"ss":44,"used":true},{"PRN":138,"el":37,"az":212,"ss":44,"used":true}]}
{"class":"PPS","device":"/dev/ttyUSB3","real_sec":1603741795, "real_nsec":0,"clock_sec":1603741795,"clock_nsec":8797876,"precision":-10}
{"class":"TPV","device":"/dev/ttyUSB3","status":2,"mode":3,"time":"2020-10-26T19:49:55.000Z","ept":0.005,"lat":41.580487680,"lon":-84.890491789,"alt":307.693,"epx":1.906,"epy":2.515,"epv":7.360,"track":0.6995,"speed":2.333,"climb":-0.007,"eps":0.11,"epc":14.72}
